{"type":"FeatureCollection","features":[{"type":"Feature","geometry":{"type":"Point","coordinates":[17.2010385,49.6156044]},"properties":{"name":"ZŠ a MŠ Křelov-Břuchotín","type":"School"}},{"type":"Feature","geometry":{"type":"Point","coordinates":[17.2588065,49.580926]},"properties":{"name":"SŠ Polytechnická","type":"School"}},{"type":"Feature","geometry":{"type":"Point","coordinates":[17.2544387,49.5899416]},"properties":{"name":"Základní škola sv. Voršily","type":"School"}},{"type":"Feature","geometry":{"type":"Point","coordinates":[17.2363145,49.5787145]},"properties":{"name":"Gymnázium Olomouc Čajkovského 9","type":"School"}},{"type":"Feature","geometry":{"type":"Point","coordinates":[17.2249759,49.6124378]},"properties":{"name":"School","type":"School"}},{"type":"Feature","geometry":{"type":"Point","coordinates":[17.2764442,49.5906596]},"properties":{"name":"Moravská vysoká škola","type":"School"}},{"type":"Feature","geometry":{"type":"Point","coordinates":[17.1789963,49.6431685]},"properties":{"name":"ZŠ Skrbeň","type":"School"}},{"type":"Feature","geometry":{"type":"Point","coordinates":[17.2455353,49.5960828]},"properties":{"name":"Střední zdravotnická škola a Vyšší odborná škola zdravotnická Emanuela Pöttinga","type":"School"}},{"type":"Feature","geometry":{"type":"Point","coordinates":[17.2312872,49.6062455]},"properties":{"name":"ZŠ prof. Z. Matějčka","type":"School"}},{"type":"Feature","geometry":{"type":"Point","coordinates":[17.2319121,49.6061343]},"properties":{"name":"ZŠ a MŠ Svatoplukova","type":"School"}},{"type":"Feature","geometry":{"type":"Point","coordinates":[17.1784967,49.6434304]},"properties":{"name":"School","type":"School"}},{"type":"Feature","geometry":{"type":"Point","coordinates":[17.2374187,49.6175737]},"properties":{"name":"Živá škola","type":"School"}},{"type":"Feature","geometry":{"type":"Point","coordinates":[17.2364741,49.6033956]},"properties":{"name":"Waldorfská škola Olomouc","type":"School"}},{"type":"Feature","geometry":{"type":"Point","coordinates":[17.2371619,49.6031716]},"properties":{"name":"Waldorfská škola Olomouc","type":"School"}},{"type":"Feature","geometry":{"type":"Point","coordinates":[17.2363929,49.6173871]},"properties":{"name":"Sofisa","type":"School"}},{"type":"Feature","geometry":{"type":"Point","coordinates":[17.2497118,49.5796855]},"properties":{"name":"School","type":"School"}},{"type":"Feature","geometry":{"type":"Point","coordinates":[17.2492445,49.5795938]},"properties":{"name":"MŠ Holečkova","type":"School"}},{"type":"Feature","geometry":{"type":"Point","coordinates":[17.3339764,49.5502057]},"properties":{"name":"ZŠ Milady Petřkové","type":"School"}},{"type":"Feature","geometry":{"type":"Point","coordinates":[17.2914453,49.6228842]},"properties":{"name":"MŠ Týneček","type":"School"}},{"type":"Feature","geometry":{"type":"Point","coordinates":[17.2436362,49.5810107]},"properties":{"name":"School","type":"School"}},{"type":"Feature","geometry":{"type":"Point","coordinates":[17.2420028,49.5796426]},"properties":{"name":"School","type":"School"}},{"type":"Feature","geometry":{"type":"Point","coordinates":[17.2429432,49.5806585]},"properties":{"name":"School","type":"School"}},{"type":"Feature","geometry":{"type":"Point","coordinates":[17.2429444,49.5809932]},"properties":{"name":"School","type":"School"}},{"type":"Feature","geometry":{"type":"Point","coordinates":[17.3232941,49.6459511]},"properties":{"name":"ZŠ Dolany","type":"School"}},{"type":"Feature","geometry":{"type":"Point","coordinates":[17.3421284,49.6295232]},"properties":{"name":"ZŠ","type":"School"}},{"type":"Feature","geometry":{"type":"Point","coordinates":[17.3395693,49.6270007]},"properties":{"name":"SŠ","type":"School"}},{"type":"Feature","geometry":{"type":"Point","coordinates":[17.2581303,49.5784581]},"properties":{"name":"ZŠ Rooseveltova","type":"School"}},{"type":"Feature","geometry":{"type":"Point","coordinates":[17.2794515,49.6070984]},"properties":{"name":"School","type":"School"}},{"type":"Feature","geometry":{"type":"Point","coordinates":[17.2297638,49.595256]},"properties":{"name":"School","type":"School"}},{"type":"Feature","geometry":{"type":"Point","coordinates":[17.2306761,49.5950535]},"properties":{"name":"School","type":"School"}},{"type":"Feature","geometry":{"type":"Point","coordinates":[17.2348675,49.5930169]},"properties":{"name":"School","type":"School"}},{"type":"Feature","geometry":{"type":"Point","coordinates":[17.2295084,49.5957565]},"properties":{"name":"School","type":"School"}},{"type":"Feature","geometry":{"type":"Point","coordinates":[17.2298255,49.5950085]},"properties":{"name":"School","type":"School"}},{"type":"Feature","geometry":{"type":"Point","coordinates":[17.2383895,49.5926128]},"properties":{"name":"Základní umělecká škola Iši Krejčího","type":"School"}},{"type":"Feature","geometry":{"type":"Point","coordinates":[17.2249674,49.6123838]},"properties":{"name":"Střední odborná škola Olomouc","type":"School"}},{"type":"Feature","geometry":{"type":"Point","coordinates":[17.2293884,49.5960002]},"properties":{"name":"School","type":"School"}},{"type":"Feature","geometry":{"type":"Point","coordinates":[17.2302984,49.5958716]},"properties":{"name":"School","type":"School"}},{"type":"Feature","geometry":{"type":"Point","coordinates":[17.2321444,49.5887885]},"properties":{"name":"ZŠ Stupkova","type":"School"}},{"type":"Feature","geometry":{"type":"Point","coordinates":[17.235131,49.5934981]},"properties":{"name":"School","type":"School"}},{"type":"Feature","geometry":{"type":"Point","coordinates":[17.2346194,49.5935152]},"properties":{"name":"School","type":"School"}},{"type":"Feature","geometry":{"type":"Point","coordinates":[17.2629471,49.609299]},"properties":{"name":"School","type":"School"}},{"type":"Feature","geometry":{"type":"Point","coordinates":[17.2651472,49.5890866]},"properties":{"name":"School","type":"School"}},{"type":"Feature","geometry":{"type":"Point","coordinates":[17.2626686,49.6098913]},"properties":{"name":"School","type":"School"}},{"type":"Feature","geometry":{"type":"Point","coordinates":[17.2581541,49.6138483]},"properties":{"name":"ZŠ","type":"School"}},{"type":"Feature","geometry":{"type":"Point","coordinates":[17.2957855,49.5722084]},"properties":{"name":"ZŠ Holice","type":"School"}},{"type":"Feature","geometry":{"type":"Point","coordinates":[17.2502771,49.5799717]},"properties":{"name":"School","type":"School"}},{"type":"Feature","geometry":{"type":"Point","coordinates":[17.2686944,49.5923914]},"properties":{"name":"Základní umělecká škola Žerotín","type":"School"}},{"type":"Feature","geometry":{"type":"Point","coordinates":[17.2679407,49.5984522]},"properties":{"name":"Střední škola zemědělská - učební obory","type":"School"}},{"type":"Feature","geometry":{"type":"Point","coordinates":[17.2357669,49.5927907]},"properties":{"name":"School","type":"School"}},{"type":"Feature","geometry":{"type":"Point","coordinates":[17.235608,49.5930994]},"properties":{"name":"School","type":"School"}},{"type":"Feature","geometry":{"type":"Point","coordinates":[17.2450369,49.5948128]},"properties":{"name":"ZŠ Spojenců","type":"School"}},{"type":"Feature","geometry":{"type":"Point","coordinates":[17.176297,49.5838169]},"properties":{"name":"ZŠ","type":"School"}},{"type":"Feature","geometry":{"type":"Point","coordinates":[17.2728507,49.5926093]},"properties":{"name":"MŠ Zeyerova","type":"School"}},{"type":"Feature","geometry":{"type":"Point","coordinates":[17.2597541,49.6029667]},"properties":{"name":"ZŠ Demlova","type":"School"}},{"type":"Feature","geometry":{"type":"Point","coordinates":[17.2714414,49.5926415]},"properties":{"name":"ZŠ Zeyerova","type":"School"}},{"type":"Feature","geometry":{"type":"Point","coordinates":[17.2358353,49.6040939]},"properties":{"name":"ZŠ prof. V. Vejdovského","type":"School"}},{"type":"Feature","geometry":{"type":"Point","coordinates":[17.2296024,49.5980088]},"properties":{"name":"ZŠ Helsinská","type":"School"}},{"type":"Feature","geometry":{"type":"Point","coordinates":[17.2295908,49.5955399]},"properties":{"name":"ZŠ Tererova","type":"School"}},{"type":"Feature","geometry":{"type":"Point","coordinates":[17.2354026,49.5932272]},"properties":{"name":"ZŠ a MŠ logopedická","type":"School"}},{"type":"Feature","geometry":{"type":"Point","coordinates":[17.2315592,49.606427]},"properties":{"name":"School","type":"School"}},{"type":"Feature","geometry":{"type":"Point","coordinates":[17.263399,49.6082178]},"properties":{"name":"Střední škola zemědělská","type":"School"}},{"type":"Feature","geometry":{"type":"Point","coordinates":[17.2053764,49.6409881]},"properties":{"name":"Základní škola","type":"School"}},{"type":"Feature","geometry":{"type":"Point","coordinates":[17.1965551,49.6432879]},"properties":{"name":"School","type":"School"}},{"type":"Feature","geometry":{"type":"Point","coordinates":[17.2713539,49.5890996]},"properties":{"name":"SOŠ","type":"School"}},{"type":"Feature","geometry":{"type":"Point","coordinates":[17.2728124,49.5899453]},"properties":{"name":"Vyšší odborná škola a Střední průmyslová škola elektrotechnická","type":"School"}},{"type":"Feature","geometry":{"type":"Point","coordinates":[17.2738534,49.5900552]},"properties":{"name":"ZŠ Hálkova","type":"School"}},{"type":"Feature","geometry":{"type":"Point","coordinates":[17.2603846,49.6102322]},"properties":{"name":"Střední škola logistiky a chemie","type":"School"}},{"type":"Feature","geometry":{"type":"Point","coordinates":[17.2502072,49.5802129]},"properties":{"name":"ZŠ Holečkova","type":"School"}},{"type":"Feature","geometry":{"type":"Point","coordinates":[17.3316267,49.6163082]},"properties":{"name":"základní škola","type":"School"}},{"type":"Feature","geometry":{"type":"Point","coordinates":[17.2391168,49.5894958]},"properties":{"name":"ZŠ Mozartova","type":"School"}},{"type":"Feature","geometry":{"type":"Point","coordinates":[17.2384088,49.5926322]},"properties":{"name":"ZUŠ Iši Krejčího","type":"School"}},{"type":"Feature","geometry":{"type":"Point","coordinates":[17.2426197,49.579634]},"properties":{"name":"ZŠ Heyrovského","type":"School"}},{"type":"Feature","geometry":{"type":"Point","coordinates":[17.2428263,49.5808212]},"properties":{"name":"ZŠ Nedvědova","type":"School"}},{"type":"Feature","geometry":{"type":"Point","coordinates":[17.265544,49.5889297]},"properties":{"name":"MŠ ZŠ SŠ pro sluchově postižené","type":"School"}},{"type":"Feature","geometry":{"type":"Point","coordinates":[17.2862229,49.5922717]},"properties":{"name":"ZŠ Řezníčkova","type":"School"}},{"type":"Feature","geometry":{"type":"Point","coordinates":[17.2586651,49.5787847]},"properties":{"name":"ZŠ a MŠ Rooseveltova","type":"School"}},{"type":"Feature","geometry":{"type":"Point","coordinates":[17.2787838,49.6071408]},"properties":{"name":"ZŠ a MŠ Gorkého","type":"School"}},{"type":"Feature","geometry":{"type":"Point","coordinates":[17.2819886,49.5997786]},"properties":{"name":"ZŠ Táboritů 25","type":"School"}},{"type":"Feature","geometry":{"type":"Point","coordinates":[17.2683793,49.6015166]},"properties":{"name":"British International School Olomouc","type":"School"}},{"type":"Feature","geometry":{"type":"Point","coordinates":[17.2609112,49.5719997]},"properties":{"name":"SŠ Polygrafická","type":"School"}},{"type":"Feature","geometry":{"type":"Point","coordinates":[17.2327433,49.5812385]},"properties":{"name":"MŠ Mošnerova","type":"School"}},{"type":"Feature","geometry":{"type":"Point","coordinates":[17.2533221,49.5748025]},"properties":{"name":"ZŠ dr. Milady Horákové","type":"School"}},{"type":"Feature","geometry":{"type":"Point","coordinates":[17.2576563,49.6137959]},"properties":{"name":"ZŠ a MŠ Petřkova","type":"School"}},{"type":"Feature","geometry":{"type":"Point","coordinates":[17.2345833,49.5691678]},"properties":{"name":"School","type":"School"}},{"type":"Feature","geometry":{"type":"Point","coordinates":[17.2492438,49.5563724]},"properties":{"name":"School","type":"School"}}]}